,City,Cloudiness,Country,Date,Humidity,Lat,Lng,Max Temp,Wind Speed
0,Hermanus,32,ZA,1552787290,98,-34.42,19.24,64.99,2.8
1,Castro,44,CL,1552784400,87,-42.48,-73.76,53.6,2.24
2,Trairi,36,BR,1552787858,100,-3.28,-39.27,81.36,7.16
3,Mastic Beach,1,US,1552787909,38,40.77,-72.85,41.0,14.99
4,Esperance,20,TT,1552787706,83,10.24,-61.45,77.0,5.82
5,Ilulissat,8,GL,1552783800,59,69.22,-51.1,-0.41,8.05
6,Longyearbyen,20,NO,1552787400,53,78.22,15.63,-2.21,10.29
7,Mataura,24,NZ,1552787406,73,-46.19,168.86,64.0,2.13
8,Kampot,40,KH,1552784400,94,10.62,104.18,80.6,1.12
9,Ushuaia,20,AR,1552784400,93,-54.81,-68.31,46.4,2.24
10,Albany,20,US,1552787905,55,42.65,-73.75,33.8,16.11
11,Mahebourg,75,MU,1552784400,83,-20.41,57.7,77.0,6.93
12,Ancud,64,CL,1552784400,87,-41.87,-73.83,53.6,2.24
13,Bocana de Paiwas,64,NI,1552787929,86,12.79,-85.12,71.78,8.95
14,Kem,0,UG,1552787930,72,2.68,33.77,63.09,2.91
15,Bluff,68,AU,1552787730,100,-23.58,149.07,74.03,5.7
16,High Level,20,CA,1552784400,30,58.52,-117.13,42.8,8.05
17,Fowa,12,NG,1552787933,80,8.92,6.4,75.15,1.57
18,Isangel,75,VU,1552784400,66,-19.55,169.27,87.8,13.87
19,Busselton,76,AU,1552787752,39,-33.64,115.35,75.99,19.69
20,Rikitea,80,PF,1552787937,100,-23.12,-134.97,77.76,24.72
21,Khanpur,0,PK,1552787938,66,28.65,70.66,65.21,3.91
22,Jamestown,0,AU,1552787940,85,-33.21,138.6,76.28,5.93
23,Avera,1,US,1552787829,75,33.19,-82.53,53.6,3.36
24,Cape Town,75,ZA,1552787889,100,-33.93,18.42,64.0,5.82
25,Kokopo,44,PG,1552787944,98,-4.34,152.27,82.94,7.61
26,Provideniya,0,RU,1552787945,100,64.42,-173.23,18.23,9.62
27,Jieshi,20,CN,1552787946,87,22.82,115.83,69.89,14.88
28,Lebu,0,ET,1552784400,51,8.96,38.73,60.8,9.17
29,Hithadhoo,76,MV,1552787868,100,-0.6,73.08,80.51,0.34
30,Lake City,1,US,1552787764,43,38.03,-107.32,33.8,1.01
31,Huarmey,56,PE,1552787952,82,-10.07,-78.15,68.67,3.13
32,Manacapuru,0,BR,1552784400,88,-3.3,-60.62,78.8,3.36
33,Chuy,92,UY,1552787954,95,-33.69,-53.46,71.73,16.44
34,Bandrele,0,YT,1552786200,94,-12.91,45.19,78.8,2.24
35,Mar del Plata,32,AR,1552787792,43,-46.43,-67.52,69.57,12.64
36,Nuevo Imperial,12,PE,1552787959,91,-13.08,-76.32,65.7,0.67
37,Luanda,75,AO,1552784400,83,-8.83,13.24,78.8,2.24
38,Yurgamysh,0,RU,1552787961,54,55.37,64.47,6.89,2.91
39,Namibe,8,AO,1552787963,100,-15.19,12.15,77.94,2.57
40,Hirara,75,JP,1552784400,60,24.8,125.28,69.8,10.29
41,Atuona,0,PF,1552787856,100,-9.8,-139.03,82.31,12.3
42,Upernavik,32,GL,1552787757,100,72.79,-56.15,-11.61,13.76
43,Qaanaaq,0,GL,1552787968,77,77.48,-69.36,-26.15,6.15
44,Rawson,48,AR,1552787969,95,-43.3,-65.11,63.09,13.76
45,Sitka,0,US,1552787205,31,37.17,-99.65,53.01,1.01
46,Butaritari,92,KI,1552787959,100,3.07,172.79,76.23,3.02
47,Bathsheba,20,BB,1552784400,74,13.22,-59.52,78.8,18.34
48,Hasaki,20,JP,1552787375,34,35.73,140.83,55.0,5.82
49,Port Elizabeth,1,US,1552787803,38,39.31,-74.98,44.6,17.22
50,Zolotukhino,92,RU,1552787119,90,52.08,36.38,32.0,7.0
51,Zmeinogorsk,64,RU,1552787978,89,51.15,82.2,18.54,5.37
52,Bethel,90,US,1552787640,85,60.79,-161.76,26.6,17.22
53,Ribeira Grande,80,PT,1552787953,94,38.52,-28.7,62.06,6.38
54,Tasiilaq,88,GL,1552783800,78,65.61,-37.64,15.8,2.24
55,Hakodate,20,JP,1552784400,52,41.8,140.75,41.0,12.75
56,Saskylakh,48,RU,1552787879,71,71.97,114.09,-5.94,5.7
57,Punta Arenas,90,CL,1552787586,100,-53.16,-70.91,50.0,3.36
58,Murdochville,68,CA,1552788054,70,48.96,-65.49,25.34,21.81
59,Sainte-Marie,90,CA,1552788033,53,46.45,-71.03,26.01,13.87
60,Chokurdakh,64,RU,1552788057,92,70.62,147.9,-7.52,4.92
61,Arraial do Cabo,92,BR,1552788059,100,-22.97,-42.02,77.76,3.91
62,Tiarei,75,PF,1552787582,83,-17.53,-149.33,82.4,9.17
63,Hobart,20,AU,1552787244,49,-42.88,147.33,72.0,6.93
64,Bambous Virieux,75,MU,1552784400,83,-20.34,57.76,77.0,6.93
65,Leningradskiy,64,RU,1552788065,88,69.38,178.42,-6.57,21.59
66,Kruisfontein,8,ZA,1552788066,84,-34.0,24.73,62.51,3.13
67,Tual,64,ID,1552788068,98,-5.67,132.75,84.29,11.18
68,Caravelas,0,BR,1552787909,100,-17.73,-39.27,83.16,14.65
69,Carnduff,0,CA,1552787811,80,49.17,-101.8,23.99,10.4
70,Porto Nacional,36,BR,1552788071,91,-10.7,-48.41,77.04,2.46
71,Nador,0,MA,1552786200,71,35.17,-2.93,55.4,3.36
72,Beringovskiy,32,RU,1552788074,95,63.05,179.32,4.23,15.99
73,Lumeje,48,AO,1552788075,94,-11.56,20.78,65.34,2.91
74,Barrow,12,AR,1552787854,94,-38.31,-60.23,65.43,8.61
75,Waipawa,44,NZ,1552787957,76,-39.94,176.59,64.99,6.93
76,Gizo,40,IL,1552788073,71,31.8,34.94,57.2,13.87
77,Geraldton,90,CA,1552784400,72,49.72,-86.95,17.6,6.93
78,Flinders,90,AU,1552788016,100,-34.58,150.85,68.0,14.99
79,Sorong,8,ID,1552788083,98,-0.86,131.25,82.49,7.72
80,Klaksvik,88,FO,1552787400,100,62.23,-6.59,37.4,4.7
81,Pevek,8,RU,1552788086,83,69.7,170.27,-13.82,16.33
82,Aklavik,75,CA,1552784400,53,68.22,-135.01,24.8,8.05
83,Seoul,40,KR,1552787400,52,37.57,126.98,46.4,4.7
84,Alice Springs,24,AU,1552784400,10,-23.7,133.88,87.8,9.17
85,Tura,24,IN,1552788091,60,25.52,90.21,73.17,2.8
86,Kapaa,75,US,1552788067,65,22.08,-159.32,78.8,12.75
87,Katsuura,75,JP,1552787471,76,33.93,134.5,53.6,10.29
88,Cidreira,92,BR,1552788095,81,-30.17,-50.22,73.44,13.31
89,Atar,0,MR,1552788096,31,20.52,-13.05,59.67,7.72
90,College,1,US,1552788009,45,64.86,-147.8,46.4,9.17
91,Nizwa,0,OM,1552787998,77,22.93,57.53,50.99,2.91
92,Khatanga,44,RU,1552787827,82,71.98,102.47,-8.78,3.47
93,Thompson,75,CA,1552784400,49,55.74,-97.86,23.0,3.36
94,Pochutla,20,MX,1552787205,65,15.74,-96.47,82.4,9.73
95,Bredasdorp,44,ZA,1552788068,88,-34.53,20.04,69.8,4.7
96,Saint George,20,GR,1552787605,75,39.45,22.34,53.01,4.03
97,Talaya,75,RU,1552788014,85,55.79,84.89,19.99,8.95
98,Kurumkan,64,RU,1552788113,84,54.33,110.32,31.73,2.35
99,Constitucion,75,MX,1552788016,12,23.99,-104.67,68.0,18.34
100,Tyrma,64,RU,1552788117,59,50.04,132.17,34.43,6.38
101,Oktyabrskoye,75,RU,1552788014,85,56.73,85.44,19.99,8.95
102,Sorland,32,NO,1552788119,100,67.67,12.69,36.14,5.93
103,Puerto Ayora,8,EC,1552788098,90,-0.74,-90.35,75.99,3.0
104,Padang,20,ID,1552784400,83,-0.92,100.36,80.6,2.24
105,Porto Novo,40,BR,1552788000,100,-23.68,-45.44,71.6,1.12
106,Codrington,75,AU,1552787936,73,-28.95,153.24,77.0,3.47
107,Airai,92,TL,1552787948,94,-8.93,125.41,71.69,1.57
108,Sellye,0,HR,1552788199,69,45.87,17.85,44.91,7.16
109,Saint Anthony,1,US,1552788117,47,43.97,-111.68,39.2,6.93
110,Georgetown,0,GY,1552784400,94,6.8,-58.16,77.0,6.93
111,Amapa,20,HN,1552788111,78,15.09,-87.97,78.8,5.82
112,Koslan,56,RU,1552788205,91,63.46,48.9,22.05,4.92
113,Umm Lajj,0,SA,1552788207,100,25.02,37.27,57.56,11.74
114,Buenaventura,44,CO,1552788208,94,3.89,-77.07,70.38,1.9
115,Bobcaygeon,90,CA,1552788127,79,44.54,-78.55,28.99,11.41
116,Tashla,75,RU,1552786200,79,53.71,49.75,28.4,11.18
117,New Norfolk,20,AU,1552788038,56,-42.78,147.06,72.0,10.29
118,Cherskiy,8,RU,1552788214,41,68.75,161.3,-13.55,2.91
119,Victoria,75,BN,1552786200,74,5.28,115.24,84.2,8.05
120,Vestmannaeyjar,92,IS,1552788217,100,63.44,-20.27,37.8,13.76
121,Saint-Augustin,75,FR,1552788189,87,44.83,-0.61,53.6,6.93
122,Kavieng,12,PG,1552788219,98,-2.57,150.8,85.64,8.5
123,Bereda,20,ES,1552788206,76,43.27,-7.54,53.01,13.87
124,Saint-Philippe,90,CA,1552788215,50,45.36,-73.48,30.2,13.87
125,Vila Velha,75,BR,1552788000,94,-3.71,-38.6,75.2,4.7
126,Cabo San Lucas,90,MX,1552787731,72,22.89,-109.91,69.01,8.05
127,Vaini,0,IN,1552784400,77,15.34,74.49,64.4,4.36
128,Santa Marta,40,CO,1552787688,54,11.24,-74.21,84.2,20.8
129,Yellowknife,20,CA,1552788044,67,62.45,-114.38,25.0,11.41
130,Kodiak,1,US,1552788217,30,39.95,-94.76,46.0,10.29
131,Norman Wells,40,CA,1552784400,35,65.28,-126.83,42.8,14.99
132,Gumdag,20,TM,1552788244,80,39.2,54.59,47.52,4.92
133,Balakhninskiy,12,RU,1552788246,55,58.01,114.28,18.36,6.71
134,Hwange,48,ZW,1552788247,75,-18.35,26.5,69.71,9.51
135,Wilkie,1,CA,1552788244,59,52.41,-108.71,32.0,9.17
136,Hofn,0,IS,1552788249,100,64.25,-15.21,35.73,8.05
137,Nizhniy Kuranakh,36,RU,1552788251,75,58.84,125.49,22.73,3.58
138,Tulsipur,76,IN,1552788252,50,27.53,82.41,70.16,3.58
139,Moose Factory,90,CA,1552786500,66,51.26,-80.61,12.2,12.75
140,Loandjili,40,CG,1552784400,100,-4.77,11.87,73.4,6.93
141,Dikson,76,RU,1552788256,93,73.51,80.55,8.78,25.28
142,Jinchang,68,CN,1552788257,84,38.52,102.19,34.16,3.69
143,Erenhot,0,CN,1552788259,26,43.65,111.97,49.68,14.54
144,Kavaratti,0,IN,1552788165,100,10.57,72.64,82.58,5.14
145,Fortuna,0,ES,1552788202,61,38.18,-1.13,55.99,5.82
146,Narsaq,92,GL,1552783800,47,60.91,-46.05,35.6,18.34
147,Antalaha,12,MG,1552788264,93,-14.9,50.28,73.04,5.59
148,Diffa,92,NE,1552788265,17,13.32,12.61,76.41,12.97
149,Canmore,20,CA,1552787944,59,51.09,-115.35,35.6,5.82
150,Tanout,0,NE,1552788268,23,14.97,8.88,69.93,11.74
151,Yaan,12,NG,1552788269,90,7.38,8.57,76.23,10.29
152,Severo-Kurilsk,36,RU,1552788271,100,50.68,156.12,28.62,2.35
153,Pundaguitan,8,PH,1552788272,93,6.37,126.17,82.53,4.14
154,Nikolskoye,90,RU,1552788035,80,59.7,30.79,34.0,6.71
155,Camacha,75,PT,1552786200,72,33.08,-16.33,60.8,9.17
156,Hasanpur,64,IN,1552788276,68,28.72,78.28,65.39,4.59
157,Yulara,0,AU,1552784400,20,-25.24,130.99,91.4,6.93
158,Cordoba,12,CO,1552788278,72,5.59,-73.79,53.06,1.68
159,Ukiah,1,US,1552788023,18,39.15,-123.21,71.6,3.36
160,Mecca,8,SA,1552788281,53,21.43,39.83,55.44,7.38
161,Lavrentiya,24,RU,1552788282,97,65.58,-170.99,17.06,22.82
162,Carnarvon,0,ZA,1552788284,89,-30.97,22.13,55.94,3.02
163,Novikovo,80,UA,1552788285,100,45.05,34.56,38.66,14.76
164,Hailun,0,CN,1552788286,78,47.46,126.97,37.04,11.63
165,Terrak,56,NO,1552788002,78,65.09,12.37,34.0,16.11
166,Sakaraha,0,MG,1552788289,89,-22.91,44.53,60.98,2.57
167,Trelew,48,AR,1552788202,95,-43.25,-65.31,63.09,13.76
168,Coihaique,0,CL,1552784400,51,-45.58,-72.07,60.8,16.11
169,Ponta do Sol,64,BR,1552788298,92,-20.63,-46.0,68.13,3.69
170,Mount Gambier,0,AU,1552784400,73,-37.83,140.78,69.8,6.93
171,Cortes,92,PH,1552788300,100,9.28,126.19,73.49,4.03
172,Arlit,0,NE,1552788302,60,18.74,7.39,62.69,8.16
173,Guerrero Negro,12,MX,1552788303,66,27.97,-114.04,57.87,7.38
174,Sobolevo,88,RU,1552788305,94,54.43,31.9,33.48,3.8
175,Lata,92,IN,1552788306,69,30.78,78.62,44.78,1.79
176,Arona,0,IT,1552788307,87,45.76,8.56,53.01,2.24
177,Scarborough,0,GB,1552788306,80,54.28,-0.41,39.99,9.17
178,Poum,0,MK,1552788310,77,41.28,20.71,23.31,1.79
179,Batemans Bay,80,AU,1552788302,55,-35.71,150.18,73.0,8.99
180,Montoro,0,ES,1552788205,76,38.02,-4.38,52.0,6.93
181,East London,8,ZA,1552788314,97,-33.02,27.91,76.32,19.91
182,Turukhansk,0,RU,1552788315,46,65.8,87.96,3.11,10.74
183,Gubkinskiy,0,RU,1552788316,71,64.43,76.5,-1.98,8.61
184,Kaitangata,12,NZ,1552788245,79,-46.28,169.85,61.0,8.99
185,Kollo,68,NE,1552788319,45,13.34,2.32,78.12,4.36
186,Upata,0,VE,1552788048,70,8.02,-62.41,79.0,4.0
187,Chopda,0,IN,1552788321,67,21.25,75.3,71.1,9.62
188,Shelburne,75,CA,1552788316,85,44.08,-80.2,28.0,6.93
189,Sao Jose da Coroa Grande,80,BR,1552788324,95,-8.9,-35.15,76.77,4.14
190,Kaili,8,ID,1552788326,59,-3.46,120.21,84.56,2.13
191,San Cristobal,75,EC,1552788016,82,-0.39,-78.55,62.6,4.7
192,Harper,90,US,1552788026,32,30.3,-99.24,55.4,5.82
193,Baillif,0,GP,1552786200,83,16.02,-61.75,73.4,3.36
194,Sarkand,12,KZ,1552788331,94,45.41,79.91,31.68,3.36
195,Nanortalik,92,GL,1552788332,100,60.14,-45.24,25.47,20.47
196,Miraflores,68,CO,1552788334,98,5.2,-73.14,51.66,1.12
197,Boa Vista,0,BR,1552788000,51,2.82,-60.67,86.0,14.99
198,Aykhal,76,RU,1552788338,77,65.95,111.51,5.85,7.94
199,Kota Belud,75,MY,1552786200,74,6.35,116.43,84.2,4.7
200,Talnakh,36,RU,1552788345,73,69.49,88.39,-6.62,2.91
201,Tuktoyaktuk,40,CA,1552784400,84,69.44,-133.03,5.0,16.11
202,Nicolas Bravo,75,MX,1552788016,12,24.39,-104.74,68.0,18.34
203,Emerald,90,AU,1552788180,69,-23.53,148.16,82.99,8.05
204,Kahului,20,US,1552788169,57,20.89,-156.47,80.6,4.7
205,Manzanillo,76,CU,1552788352,100,20.34,-77.12,75.83,11.18
206,Noumea,56,NC,1552786200,74,-22.28,166.46,86.0,4.7
207,Baykit,0,RU,1552788359,75,61.68,96.39,10.53,4.7
208,Macamic,90,CA,1552784400,78,48.75,-79.0,12.2,8.05
209,Souillac,90,FR,1552788332,76,45.6,-0.6,51.8,12.75
210,Gao,0,ML,1552788368,37,16.28,-0.04,67.95,2.8
211,Bandarbeyla,92,SO,1552788369,100,9.49,50.81,77.49,6.38
212,Port Macquarie,40,AU,1552788245,69,-31.43,152.91,80.01,4.7
213,Sai Buri,0,TH,1552784400,78,6.7,101.62,78.8,4.7
214,Yantal,88,RU,1552788373,85,56.85,105.25,31.64,3.02
215,Colac,56,AU,1552788130,40,-38.34,143.59,80.01,1.01
216,Satara,0,IN,1552788375,57,17.69,74.0,74.03,5.26
217,Ambatofinandrahana,80,MG,1552788376,100,-20.55,46.8,59.67,2.57
218,Avarua,92,CK,1552786200,100,-21.21,-159.78,75.2,26.4
219,Suleja,8,NG,1552788379,76,9.18,7.18,69.84,1.12
220,Grindavik,75,IS,1552788096,100,63.84,-22.43,36.0,4.7
221,Bangui,0,CF,1552784400,88,4.39,18.55,78.8,5.82
222,Lompoc,1,US,1552788324,51,34.64,-120.46,69.8,6.93
223,Hilo,90,US,1552788337,64,19.71,-155.08,78.01,5.82
224,Taltal,0,CL,1552788385,94,-25.41,-70.49,57.06,2.01
225,Samarai,80,PG,1552788387,100,-10.62,150.67,81.36,9.84
226,Srednekolymsk,64,RU,1552788388,61,67.46,153.71,-7.65,3.36
227,Burnie,44,AU,1552788363,54,-41.05,145.91,75.0,8.99
228,Cleethorpes,0,GB,1552788365,80,53.56,-0.03,41.0,18.34
229,Vangaindrano,68,MG,1552788392,96,-23.35,47.6,70.29,2.68
230,Tilichiki,0,RU,1552788393,81,60.47,166.1,5.63,4.14
231,Broken Hill,0,AU,1552784400,30,-31.97,141.45,80.6,10.29
232,Auki,0,NG,1552788463,26,12.18,6.51,73.62,10.18
233,Roatan,20,HN,1552788000,78,16.32,-86.54,80.6,6.93
234,Maragogi,80,BR,1552788465,95,-9.01,-35.22,76.77,4.14
235,Petukhovo,0,RU,1552788467,79,55.06,67.89,12.33,8.16
236,Kalawit,8,PH,1552788468,56,7.91,122.53,88.83,7.72
237,Am Timan,0,TD,1552788469,30,11.04,20.28,67.41,8.28
238,Meulaboh,0,ID,1552788471,100,4.14,96.13,82.35,3.58
239,San Patricio,88,PY,1552788472,95,-26.98,-56.83,70.74,4.81
240,Lagoa,0,PT,1552788428,58,37.14,-8.45,55.99,1.12
241,Enid,0,US,1552788284,70,36.4,-97.88,52.0,8.05
242,La Ronge,40,CA,1552784400,51,55.1,-105.3,37.4,10.29
243,Wabana,90,CA,1552788087,100,47.63,-52.95,45.0,25.28
244,Bridgton,90,US,1552788470,43,44.05,-70.71,35.01,8.05
245,Manokwari,20,ID,1552788389,92,-0.87,134.08,83.48,3.58
246,Nishihara,20,JP,1552788449,52,35.74,139.53,62.01,3.36
247,Garwolin,75,PL,1552788483,93,51.9,21.61,44.01,5.82
248,Moron,88,VE,1552788484,94,10.49,-68.2,69.75,3.36
249,Salalah,40,OM,1552783800,73,17.01,54.1,77.0,2.24
250,Pitimbu,0,BR,1552784400,83,-7.47,-34.81,80.6,5.82
251,Elliot Lake,40,CA,1552785120,78,46.37,-82.65,17.6,16.11
252,Muros,90,ES,1552788455,87,42.77,-9.06,54.0,10.29
253,Mporokoso,68,ZM,1552788491,94,-9.37,30.12,60.75,2.35
254,Muravlenko,0,RU,1552788492,79,63.79,74.5,4.19,8.16
255,Ahipara,68,NZ,1552788493,64,-35.17,173.16,77.18,5.93
256,Tiksi,8,RU,1552788495,49,71.64,128.87,-17.01,4.36
257,Half Moon Bay,1,US,1552788490,62,37.46,-122.43,69.8,9.17
258,Beira,20,ES,1552788455,76,43.2,-8.36,55.0,13.87
259,Cabedelo,0,BR,1552784400,83,-6.97,-34.84,80.6,5.82
260,Vaitape,68,PF,1552788499,99,-16.52,-151.75,84.24,9.28
261,Birao,12,CF,1552788501,16,10.3,22.78,71.55,12.75
262,Las Margaritas,32,MX,1552788502,56,16.32,-91.98,67.77,7.38
263,Ashington,0,GB,1552788483,90,55.18,-1.57,39.0,16.11
264,Dong Hoi,32,VN,1552788505,97,17.48,106.6,76.32,9.95
265,Presidencia Roque Saenz Pena,92,AR,1552788506,96,-26.79,-60.44,70.34,10.29
266,Mildura,0,AU,1552788046,32,-34.18,142.16,87.01,6.93
267,Innisfail,75,CA,1552788016,43,52.02,-113.95,33.8,3.36
268,Kieta,0,PG,1552788335,97,-6.22,155.63,83.52,3.47
269,Fez,0,MA,1552786200,35,34.03,-5.02,55.4,12.75
270,Kalashnikovo,92,RU,1552788512,90,57.28,35.23,29.79,10.4
271,Forbes,48,AU,1552788289,58,-33.38,148.01,75.99,1.99
272,Mangrol,75,IN,1552786200,68,25.33,76.51,64.4,3.13
273,Olinda,90,EC,1552788332,100,-2.03,-79.75,79.0,4.7
274,Bosaso,0,SO,1552788518,100,11.28,49.18,76.05,6.93
275,Athabasca,0,CA,1552788519,74,54.72,-113.29,24.48,5.48
276,Lorengau,68,PG,1552788521,100,-2.02,147.27,81.23,8.61
277,Puqi,100,CN,1552788522,88,29.72,113.88,59.31,3.24
278,Kutum,0,SD,1552788523,19,14.2,24.66,56.03,11.41
279,Alugan,92,PH,1552788525,87,12.22,125.48,80.69,16.67
280,Ampanihy,36,MG,1552788526,93,-24.69,44.75,69.98,6.93
281,Teguldet,68,RU,1552788527,66,57.31,88.17,23.67,5.59
282,Tuyen Quang,80,VN,1552788263,99,21.82,105.22,67.23,3.69
283,Saldanha,0,PT,1552788529,65,41.42,-6.55,33.48,5.03
284,Naze,32,NG,1552788265,93,5.43,7.07,74.93,4.92
285,Beidao,92,CN,1552788534,86,34.57,105.89,43.38,3.69
286,Port Alfred,8,ZA,1552788319,98,-33.59,26.89,69.01,1.01
287,Brae,76,GB,1552785600,86,60.4,-1.35,39.2,6.93
288,Touros,75,BR,1552784400,94,-5.2,-35.46,78.8,12.75
289,Tabory,92,PL,1552788367,90,53.89,19.53,45.0,4.0
290,Northam,36,GB,1552788320,81,51.04,-4.21,43.0,17.22
291,Victor Harbor,0,AU,1552788215,53,-35.55,138.62,90.0,10.29
292,Faanui,64,PF,1552788542,100,-16.48,-151.75,84.38,8.16
293,Riachao do Jacuipe,0,BR,1552788543,63,-11.81,-39.39,75.38,6.26
294,Limbang,75,BN,1552786200,74,4.75,115.01,84.2,11.41
295,Mujiayingzi,0,CN,1552788546,49,42.12,118.78,51.3,8.84
296,Port Lincoln,0,AU,1552788547,77,-34.72,135.86,73.94,12.08
297,Tecoanapa,75,MX,1552783200,83,16.99,-99.26,80.6,8.05
298,Ostrovnoy,48,RU,1552788617,86,68.05,39.51,26.82,13.2
299,Sangamner,0,IN,1552788618,35,19.57,74.2,74.97,5.37
300,Dabhol,0,IN,1552788619,91,17.6,73.17,77.09,7.94
301,Inirida,20,CO,1552788517,92,3.87,-67.92,75.06,2.13
302,Takoradi,8,GH,1552788621,100,4.89,-1.75,78.26,3.8
303,Tautira,75,PF,1552788185,83,-17.73,-149.15,82.4,9.17
304,Tumbagaan,0,PH,1552788624,100,5.37,120.31,81.99,14.65
305,Ulaanbaatar,0,MN,1552788000,39,47.92,106.92,30.2,2.24
306,Whitehorse,75,CA,1552784400,56,60.72,-135.06,41.0,24.16
307,Shingu,40,JP,1552784400,54,33.72,135.99,57.2,11.41
308,Jian,20,IN,1552788629,38,25.65,87.89,75.74,8.39
309,Nome,75,US,1552788614,62,30.04,-94.42,57.2,3.8
310,Cockburn Town,0,TC,1552788607,100,21.46,-71.14,77.04,16.22
311,Bull Savanna,44,JM,1552788633,81,17.89,-77.59,72.36,3.13
312,Svetlogorsk,40,RU,1552786200,92,53.14,59.15,10.4,4.47
313,Macherla,0,IN,1552788635,45,16.48,79.44,80.91,4.03
314,Karratha,0,AU,1552788575,32,-20.74,116.85,98.64,6.26
315,Rundu,0,NA,1552788638,57,-17.91,19.77,66.6,7.16
316,Tadine,20,NC,1552788639,90,-21.55,167.88,81.9,18.68
317,Magadan,12,RU,1552788640,100,59.56,150.8,14.99,19.69
318,Ostroda,92,PL,1552788606,90,53.7,19.96,45.0,4.0
319,Tessalit,0,ML,1552788443,31,20.2,1.01,58.91,2.68
320,Chisec,0,GT,1552788644,80,15.81,-90.29,68.09,1.9
321,Mehamn,56,NO,1552788475,83,71.03,27.85,26.51,17.0
322,Nang Rong,8,TH,1552788607,74,14.64,102.79,87.01,2.24
323,Virginia Beach,1,US,1552788602,65,36.85,-75.98,48.99,4.7
324,Luderitz,12,NA,1552788650,92,-26.65,15.16,59.85,9.62
325,Beatrice,1,US,1552788617,67,40.27,-96.75,42.8,9.17
326,Pilar,75,AR,1552788607,94,-34.46,-58.91,73.99,12.75
327,Duki,0,PK,1552788654,75,30.15,68.58,45.63,3.13
328,Vao,92,EE,1552788655,98,59.1,26.19,32.85,3.91
329,Berlevag,0,NO,1552788452,100,70.86,29.09,24.26,15.77
330,Bundaberg,40,AU,1552788609,65,-24.87,152.35,87.01,6.93
331,Belle Fourche,1,US,1552788604,68,44.67,-103.85,32.0,4.7
332,Saint-Raphael,20,HT,1552788660,84,19.43,-72.2,70.2,2.57
333,Antsohihy,92,MG,1552788662,100,-14.88,47.99,71.1,3.24
334,San Policarpo,92,PH,1552788664,87,12.18,125.51,80.69,16.67
335,Tevaitoa,56,PF,1552788665,98,-16.78,-151.5,84.11,8.95
336,Pryazha,64,RU,1552784400,80,61.69,33.62,30.2,4.47
337,Vire,92,FR,1552788025,93,48.84,-0.89,46.99,17.22
338,Hami,0,CN,1552788493,43,42.84,93.51,51.08,7.94
339,Dingle,48,PH,1552788671,67,11.0,122.67,83.21,14.09
340,Ratnagiri,8,IN,1552788672,99,16.98,73.3,78.3,8.84
341,Pacifica,1,US,1552788666,62,37.61,-122.49,66.2,9.17
342,Placido de Castro,12,BR,1552788675,93,-10.34,-67.19,76.86,2.01
343,Sao Filipe,0,CV,1552788676,94,14.9,-24.5,71.24,12.19
344,Los Llanos de Aridane,0,ES,1552788665,68,28.66,-17.92,64.4,9.17
345,Saint-Pierre,75,FR,1552788424,81,48.95,4.24,50.0,23.04
346,Freeport,32,BS,1552788681,98,26.54,-78.7,75.29,8.39
347,Sinnamary,36,GF,1552788531,97,5.38,-52.96,78.66,12.41
348,Zharkent,0,KZ,1552788683,50,44.17,80.0,28.26,2.24
349,Guozhen,100,CN,1552788685,99,29.3,113.14,54.18,3.47
350,Cottonwood,1,US,1552788681,33,34.74,-112.01,60.8,6.93
351,Vallenar,0,CL,1552788688,74,-28.58,-70.76,54.86,2.91
352,Sumbe,92,AO,1552788689,100,-11.2,13.84,78.44,5.7
353,Omboue,88,GA,1552788691,100,-1.57,9.26,83.52,1.23
354,Hay River,20,CA,1552784400,38,60.82,-115.79,42.8,10.29
355,Maniitsoq,36,GL,1552788693,82,65.42,-52.9,7.11,7.94
356,Bridlington,0,GB,1552788669,80,54.08,-0.19,41.0,18.34
357,Grand Gaube,75,MU,1552788548,83,-20.01,57.66,77.0,6.93
358,Dzaoudzi,0,YT,1552786200,94,-12.79,45.27,78.8,2.24
359,Galveston,1,US,1552788660,73,40.58,-86.19,36.0,2.68
360,Antigonish,20,CA,1552788642,77,45.62,-61.99,39.2,13.87
361,Torbay,90,CA,1552788087,100,47.66,-52.73,45.0,25.28
362,Fort Saint James,8,CA,1552788702,84,54.43,-124.25,32.09,2.91
363,Caucaia,75,BR,1552788494,94,-3.73,-38.66,75.2,4.7
364,Mingyue,0,CN,1552788705,33,43.11,128.91,39.51,4.92
365,Mulki,75,PL,1552788544,100,49.81,20.51,46.99,2.24
366,Lagunas,32,PE,1552788708,95,-5.23,-75.68,73.13,2.57
367,Mantua,12,IT,1552788684,80,45.16,10.79,51.01,3.36
368,Buala,0,SB,1552788710,74,-8.15,159.59,88.88,6.93
369,Chaiyaphum,0,TH,1552787755,63,15.81,102.03,98.01,5.14
370,Luena,80,AO,1552788713,96,-11.78,19.91,63.68,2.68
371,Kazachinskoye,64,RU,1552788714,78,57.69,93.28,25.47,7.49
372,Sola,90,FI,1552788425,92,62.78,29.36,33.01,9.17
373,Lethem,0,GY,1552788718,58,3.38,-59.8,83.03,14.54
374,Ranot,92,TH,1552788719,73,7.78,100.32,83.52,11.41
375,Ligayan,0,PH,1552788721,97,4.65,119.47,82.31,14.76
376,Adrar,0,DZ,1552784400,22,27.87,-0.29,59.0,12.75
377,Kudahuvadhoo,68,MV,1552788723,100,2.67,72.89,79.61,7.16
378,Kearney,1,US,1552788362,80,40.7,-99.08,41.0,6.93
379,Ucluelet,90,CA,1552788363,71,48.94,-125.55,53.01,2.01
380,Belmonte,0,PT,1552788076,89,40.36,-7.35,45.0,5.01
381,Vardo,75,US,1552788784,38,39.62,-77.74,41.0,8.05
382,Muisne,8,EC,1552788797,97,0.61,-80.02,71.28,3.02
383,Tricase,40,IT,1552788757,93,39.93,18.36,55.0,5.82
384,Dickinson,1,US,1552788424,79,46.88,-102.79,28.4,6.93
385,Antofagasta,0,CL,1552784400,77,-23.65,-70.4,64.4,6.93
386,Paka,0,HR,1552786200,86,45.29,18.06,37.4,5.82
387,Biak,24,ID,1552788804,73,-0.91,122.88,87.53,2.68
388,Pisco,0,PE,1552784400,78,-13.71,-76.2,71.6,18.34
389,Puerto Madryn,44,AR,1552788604,94,-42.77,-65.04,63.86,16.89
390,Qasigiannguit,8,GL,1552783800,59,68.82,-51.19,-0.41,8.05
391,Deputatskiy,56,RU,1552788809,77,69.3,139.9,-5.18,3.58
392,Yarensk,80,RU,1552788811,86,62.17,49.09,22.19,5.59
393,Slave Lake,1,CA,1552784400,41,55.28,-114.77,39.2,2.35
394,Mananjary,8,MG,1552788813,90,-19.16,46.8,55.76,2.91
395,Ayan,32,TR,1552788814,89,40.67,33.6,31.77,8.28
396,Namatanai,56,PG,1552788816,100,-3.66,152.44,82.62,9.62
397,Laguna,75,MX,1552783200,37,27.52,-110.01,71.6,8.05
398,Paramonga,36,PE,1552788818,100,-10.68,-77.82,71.73,9.84
399,Plymouth,36,GB,1552788633,91,50.37,-4.14,44.01,8.01
400,Tiznit,0,MA,1552788821,67,29.7,-9.73,59.63,1.57
401,Praya,40,ID,1552788000,78,-8.71,116.27,82.4,3.36
402,Port Hardy,75,CA,1552784400,66,50.7,-127.42,51.8,18.34
403,Beian,20,NO,1552788780,100,63.66,9.57,32.0,19.46
404,Sawtell,75,AU,1552788004,73,-30.38,153.1,80.01,5.82
405,Gravdal,92,NO,1552788724,80,59.79,5.78,41.0,27.51
406,Murray,1,US,1552788803,56,40.67,-111.89,48.2,1.79
407,Nemuro,75,JP,1552784400,64,43.32,145.57,35.6,3.36
408,Xingyi,0,CN,1552788831,51,24.19,102.82,68.36,8.05
409,Onguday,0,RU,1552788833,53,50.75,86.14,31.05,4.25
410,Catalao,44,BR,1552788834,90,-18.17,-47.95,70.47,1.9
411,Merauke,92,ID,1552788835,100,-8.49,140.4,74.84,11.18
412,Portland,90,US,1552788723,44,45.52,-122.67,61.0,11.41
413,Alvorada,0,BR,1552788795,88,-30.0,-51.08,75.2,11.41
414,Waingapu,76,ID,1552788840,88,-9.65,120.26,81.14,6.15
415,Kalevala,92,FI,1552788841,87,64.12,29.58,31.32,8.05
416,Port Hedland,20,AU,1552786200,63,-20.31,118.58,91.4,11.41
417,Margate,20,AU,1552788796,56,-43.03,147.26,73.99,10.29
418,Oytal,20,KZ,1552788845,46,42.91,73.27,49.86,7.16
419,Qingdao,0,CN,1552784400,40,36.09,120.35,53.6,2.24
420,Aguimes,0,ES,1552788770,72,27.91,-15.45,64.4,23.04
421,San Rafael,64,AR,1552788673,92,-34.61,-68.33,55.04,2.91
422,Tikamgarh,48,IN,1552788851,83,24.74,78.83,62.51,4.59
423,George,20,NG,1552788852,90,6.63,3.35,81.86,8.72
424,Progreso,75,UY,1552788266,88,-34.68,-56.22,72.0,13.87
425,Kaberamaido,0,UG,1552788856,76,1.76,33.16,66.69,8.95
426,Wamba,92,CD,1552788857,97,2.14,27.99,67.28,2.35
427,Tezu,44,IN,1552788859,77,27.93,96.16,58.95,1.45
428,Namtsy,0,RU,1552786200,83,62.72,129.66,-9.41,4.47
429,Goderich,0,CA,1552788807,84,43.74,-81.71,28.99,11.01
430,Mount Pleasant,1,US,1552788807,32,33.16,-94.97,53.6,4.14
431,Abhar,76,IR,1552788865,74,36.14,49.22,27.59,3.13
432,Yerbogachen,32,RU,1552788866,70,61.28,108.01,24.21,7.38
433,Tshikapa,92,CD,1552788867,100,-6.42,20.79,69.84,2.13
434,Busayra,92,JO,1552788869,96,30.74,35.61,46.44,3.91
435,Agudos,0,BR,1552788643,100,-22.47,-48.99,75.2,10.29
436,Karla,90,EE,1552788831,93,59.37,24.93,36.0,8.05
437,Udachnyy,68,RU,1552788872,55,66.42,112.4,5.63,4.7
438,Ternate,20,PH,1552788831,61,14.29,120.72,88.0,6.93
439,Serik,0,TR,1552787400,50,36.92,31.1,54.0,13.87
440,Terrace Bay,36,CA,1552788732,69,48.78,-87.1,18.45,7.16
441,Obo,88,CF,1552788877,55,5.39,26.49,67.05,5.37
442,Vigrestad,75,NO,1552788099,80,58.57,5.7,39.99,23.04
443,Chernyshevskiy,80,RU,1552788880,73,63.01,112.47,16.65,8.61
444,Southampton,12,GB,1552788785,87,50.9,-1.4,44.01,13.87
445,Coahuayana,20,MX,1552788883,60,18.62,-100.35,66.69,2.01
446,Chernushka,48,RU,1552788884,77,56.5,56.08,17.55,6.38
447,Nagod,76,IN,1552788885,43,24.57,80.59,68.99,4.47
448,Cap Malheureux,75,MU,1552788848,94,-19.98,57.61,77.0,4.7
449,Balikpapan,20,ID,1552786200,66,-1.24,116.86,86.0,5.82
450,Turlock,1,US,1552788824,42,37.49,-120.85,71.6,5.82
451,Inuvik,75,CA,1552784400,53,68.36,-133.71,24.8,8.05
452,Segezha,88,RU,1552788892,85,63.74,34.31,27.27,8.5
453,Pussi,88,EE,1552788893,96,59.36,27.05,33.3,4.47
454,Alyangula,75,AU,1552784400,74,-13.85,136.42,87.8,5.82
455,Kondagaon,0,IN,1552788896,62,19.59,81.66,75.38,4.59
456,Bowen,75,AU,1552788860,70,-20.01,148.25,89.01,6.93
457,Rasht,0,IR,1552784400,81,37.28,49.58,51.8,1.9
458,Blacksburg,1,US,1552788700,30,37.23,-80.41,44.6,4.7
459,Isla Mujeres,20,MX,1552788784,78,21.23,-86.73,78.8,5.82
460,Northport,1,US,1552788591,42,33.23,-87.58,48.2,4.7
461,Belaya Gora,24,RU,1552788904,82,68.54,146.19,-8.82,4.36
462,Aden,92,YE,1552788790,98,12.79,45.03,78.39,12.75
463,Saint-Joseph,0,FR,1552788481,87,43.56,6.97,57.2,1.34
464,Kawalu,56,ID,1552788908,79,-7.38,108.21,77.22,2.46
465,Vanimo,48,PG,1552788909,100,-2.67,141.3,81.81,10.07
466,Ust-Donetskiy,44,RU,1552788910,91,47.64,40.87,29.25,4.14
467,Mandalgovi,0,MN,1552788912,63,45.76,106.27,40.95,10.18
468,Neyvo-Shaytanskiy,36,RU,1552788913,65,57.73,61.25,8.37,2.35
469,Agadir,0,MA,1552786200,82,30.42,-9.58,57.2,5.82
470,Verkhnyaya Tishanka,32,RU,1552788915,97,51.32,40.54,31.73,6.71
471,El Dorado,32,VE,1552788917,68,6.71,-61.64,77.85,4.36
472,Bubaque,0,GW,1552788918,90,11.28,-15.83,78.98,14.88
473,Clyde River,75,CA,1552786380,74,70.47,-68.59,-23.81,9.17
474,Yingcheng,92,CN,1552784400,82,30.93,113.57,57.2,4.47
475,Merke,12,KZ,1552788922,69,42.87,73.19,30.96,2.91
476,Puerto Escondido,20,MX,1552783260,69,15.86,-97.07,82.4,13.98
477,Isilkul,80,RU,1552788924,87,54.9,71.26,23.22,8.95
478,Husavik,56,CA,1552788610,89,50.56,-96.99,25.0,4.0
479,Coquimbo,90,CL,1552784400,82,-29.95,-71.34,59.0,4.7
480,Araouane,0,ML,1552788929,26,18.9,-3.53,59.85,3.58
481,Barcelos,75,PT,1552788918,81,41.53,-8.62,53.6,2.35
482,Ngunguru,8,NZ,1552788486,77,-35.62,174.5,72.0,7.0
483,Wajir,0,KE,1552788937,61,1.75,40.07,78.93,12.08
484,Tateyama,75,JP,1552788657,52,36.66,137.31,45.0,8.05
485,La Asuncion,36,EC,1552788940,95,-1.64,-78.74,45.63,1.34
486,Panara,88,LT,1552788941,94,54.11,24.11,36.27,6.15
487,Hovd,20,NO,1552788873,100,63.83,10.7,33.01,19.46
488,Ajdabiya,0,LY,1552788943,84,30.75,20.22,41.36,2.68
489,Elko,1,US,1552788089,29,40.83,-115.76,51.8,9.17
490,Zhuhai,0,CN,1552784400,38,40.71,112.04,39.2,4.47
491,Kyren,12,RU,1552788947,58,51.68,102.13,32.36,2.57
492,Westport,88,IE,1552788784,87,53.8,-9.52,37.99,1.01
493,The Valley,20,AI,1552788907,73,18.22,-63.06,77.0,10.29
494,Praxedis Guerrero,75,MX,1552788132,81,31.37,-106.02,46.0,9.17
495,Zavetnoye,92,RU,1552788953,96,47.12,43.89,40.05,8.39
496,Santa Isabel do Rio Negro,32,BR,1552788954,95,-0.41,-65.02,76.59,2.8
497,Teshie,44,GH,1552788955,100,5.58,-0.11,82.35,11.41
498,Hun,36,BE,1552788954,65,50.34,4.87,50.0,24.16
499,Chake Chake,88,TZ,1552788957,98,-5.25,39.77,80.96,5.7
500,Anadyr,90,RU,1552788790,76,64.73,177.51,-5.01,11.18
501,Tsabong,80,BW,1552788960,35,-26.02,22.4,74.84,8.16
502,Kristianstad,92,SE,1552788919,93,56.03,14.16,44.6,10.29
503,Ilhabela,56,BR,1552788963,100,-23.78,-45.36,77.36,11.41
504,Chulman,92,RU,1552788964,60,56.84,124.9,28.58,3.58
505,Solnechnyy,20,RU,1552788965,73,50.72,136.64,35.06,3.58
506,Hopkinsville,1,US,1552788928,35,36.87,-87.49,44.01,4.7
507,Mount Isa,0,AU,1552786200,22,-20.73,139.49,91.4,6.93
508,Krasnyy Chikoy,0,RU,1552788969,39,50.36,108.75,47.84,3.13
509,Panguiranan,88,PH,1552788970,84,12.07,123.32,81.99,15.88
510,Monterey,1,US,1552788744,52,36.6,-121.89,66.2,8.05
511,Gondanglegi,44,ID,1552788973,80,-7.75,112.01,81.41,4.59
512,Bilma,0,NE,1552788974,19,18.69,12.92,57.96,8.61
513,Narrabri,75,AU,1552784400,77,-30.33,149.78,68.0,6.93
514,Zapolyarnyy,68,RU,1552785600,85,69.43,30.82,12.2,13.87
515,Lakes Entrance,36,AU,1552788923,66,-37.88,147.99,79.0,10.0
516,Haines Junction,68,CA,1552788980,82,60.75,-137.51,31.68,4.36
517,Tuatapere,20,NZ,1552788606,73,-46.13,167.69,64.0,3.91
518,San Francisco,1,US,1552788786,62,37.78,-122.42,68.0,9.17
519,Maceio,0,BR,1552788000,88,-9.67,-35.74,75.2,2.24
520,Ixtapa,90,MX,1552788918,83,20.71,-105.21,75.2,5.82
521,Nizhniy Kislyay,76,RU,1552788986,92,50.86,40.17,30.96,7.83
522,Lyantonde,12,UG,1552788988,88,-0.41,31.15,59.58,3.58
523,Kulhudhuffushi,8,MV,1552788989,100,6.62,73.07,83.84,8.95
524,Viedma,64,AR,1552788990,96,-40.81,-62.99,62.91,2.91
525,Marsa Matruh,20,EG,1552784400,81,31.35,27.25,51.8,4.7
526,Gat,0,SN,1552786200,82,14.69,-16.54,68.0,11.41
527,Mae Sai,0,MM,1552787578,94,20.44,99.89,81.0,1.79
528,Mumford,56,GH,1552788995,96,5.26,-0.76,77.63,5.7
529,Palauig,0,PH,1552788997,74,15.44,119.9,83.34,0.78
530,Candido de Abreu,68,BR,1552788999,91,-24.57,-51.33,68.31,4.59
531,Santa Isabel,75,CO,1552784400,83,4.71,-75.1,77.0,3.36
532,Biltine,0,TD,1552789003,18,14.53,20.93,69.57,14.2
533,Nata,20,CY,1552786200,76,34.78,32.57,57.2,4.7
534,Neryungri,88,RU,1552789005,72,56.66,124.71,24.71,4.25
535,Myitkyina,0,MM,1552789007,79,25.38,97.4,69.93,3.02
536,Ishigaki,75,JP,1552784400,64,24.34,124.16,71.6,12.75
537,Eyl,80,SO,1552789010,100,7.98,49.82,76.77,10.18
538,Gavrilov Posad,88,RU,1552789011,93,56.56,40.12,28.31,6.04
539,Buta,8,CD,1552789012,85,2.79,24.73,71.82,2.13
540,Muli,0,IN,1552789013,31,22.62,71.45,70.11,8.61
541,Valley,8,GB,1552788996,75,53.28,-4.56,42.8,25.28
542,Santa Maria del Oro,80,MX,1552789016,40,25.95,-105.37,52.29,2.46
543,Killybegs,56,IE,1552789017,100,54.63,-8.45,40.68,13.2
544,Chunian,8,PK,1552789019,77,30.96,73.98,62.01,2.91
545,Amuntai,32,ID,1552788952,81,-2.42,115.25,82.94,2.91
546,La Macarena,68,CO,1552789021,66,2.18,-73.79,78.98,1.9
547,Bud,8,NO,1552788968,64,62.91,6.91,35.6,25.28
548,Soyo,76,AO,1552789024,94,-6.13,12.37,79.88,3.02
549,Mahroni,48,IN,1552789026,83,24.59,78.73,62.51,4.59
550,Chkalovsk,90,RU,1552786200,92,56.76,43.24,28.4,6.71
551,Yumen,0,CN,1552789028,43,40.29,97.04,46.31,7.38
552,Todos Santos,90,MX,1552789011,72,23.45,-110.23,69.01,8.05
553,Vilyuysk,20,RU,1552789031,52,63.75,121.63,7.43,5.7
